{
"type": "FeatureCollection",
"name": "student",
"features": [
{ "type": "Feature", "properties": { "Name": "ACHARYA NAYAN ", "District": "Sindhupalchok", "lat": 27.7667, "long": 85.7 }, "geometry": { "type": "Point", "coordinates": [ 85.7, 27.7667 ] } },
{ "type": "Feature", "properties": { "Name": "ACHARYA SAMVID ", "District": "Bardiya", "lat": 28.3167, "long": 81.5 }, "geometry": { "type": "Point", "coordinates": [ 81.5, 28.3167 ] } },
{ "type": "Feature", "properties": { "Name": "BAJAGAIN RUPA ", "District": "manang", "lat": 28.6167, "long": 84.0167 }, "geometry": { "type": "Point", "coordinates": [ 84.0167, 28.6167 ] } },
{ "type": "Feature", "properties": { "Name": "BHANDARI NIRAJAN ", "District": "Gulmi", "lat": 28.5667, "long": 83.3208 }, "geometry": { "type": "Point", "coordinates": [ 83.3208, 28.5667 ] } },
{ "type": "Feature", "properties": { "Name": "CHAUDHARY ARBIN ", "District": "Kapilbastu", "lat": 27.5333, "long": 83.0333 }, "geometry": { "type": "Point", "coordinates": [ 83.0333, 27.5333 ] } },
{ "type": "Feature", "properties": { "Name": "CHAUDHARY BIPUL ", "District": "Saptari", "lat": 26.5667, "long": 86.75 }, "geometry": { "type": "Point", "coordinates": [ 86.75, 26.5667 ] } },
{ "type": "Feature", "properties": { "Name": "CHAULAGAIN SUBASH ", "District": "Rolpa", "lat": 27.85, "long": 82.8 }, "geometry": { "type": "Point", "coordinates": [ 82.8, 27.85 ] } },
{ "type": "Feature", "properties": { "Name": "DAHAL AYUSH ", "District": "jhapa", "lat": 26.6167, "long": 87.8667 }, "geometry": { "type": "Point", "coordinates": [ 87.8667, 26.6167 ] } },
{ "type": "Feature", "properties": { "Name": "DAHAL PRATIKSHA ", "District": "Rukum_East", "lat": 28.6167, "long": 82.8333 }, "geometry": { "type": "Point", "coordinates": [ 82.8333, 28.6167 ] } },
{ "type": "Feature", "properties": { "Name": "DAHAL RUJA ", "District": "kavrepalanchowk", "lat": 27.6167, "long": 85.55 }, "geometry": { "type": "Point", "coordinates": [ 85.55, 27.6167 ] } },
{ "type": "Feature", "properties": { "Name": "JOSHI PRAKASH ", "District": "Kanchanpur", "lat": 28.8333, "long": 80.35 }, "geometry": { "type": "Point", "coordinates": [ 80.35, 28.8333 ] } },
{ "type": "Feature", "properties": { "Name": "KAFLE ANITA ", "District": "Dhading", "lat": 27.9833, "long": 84.9167 }, "geometry": { "type": "Point", "coordinates": [ 84.9167, 27.9833 ] } },
{ "type": "Feature", "properties": { "Name": "KARKI AASHISH KUMAR", "District": "PANCHTHAR", "lat": 26.85, "long": 87.3333 }, "geometry": { "type": "Point", "coordinates": [ 87.3333, 26.85 ] } },
{ "type": "Feature", "properties": { "Name": "KHADKA BIBECHANA  ", "District": "Salyan", "lat": 28.3667, "long": 82.1833 }, "geometry": { "type": "Point", "coordinates": [ 82.1833, 28.3667 ] } },
{ "type": "Feature", "properties": { "Name": "KHADKA DIKSHYA ", "District": "SANKHUWASHABA", "lat": 27.3333, "long": 87.1667 }, "geometry": { "type": "Point", "coordinates": [ 87.1667, 27.3333 ] } },
{ "type": "Feature", "properties": { "Name": "KHADKA PREM  PRAKASH", "District": "Rukum ", "lat": 28.5333, "long": 82.8 }, "geometry": { "type": "Point", "coordinates": [ 82.8, 28.5333 ] } },
{ "type": "Feature", "properties": { "Name": "KHADKA SANJOG ", "District": " DANG", "lat": 27.9667, "long": 82.5333 }, "geometry": { "type": "Point", "coordinates": [ 82.5333, 27.9667 ] } },
{ "type": "Feature", "properties": { "Name": "KHATRI RAKSHYA ", "District": "Darchula", "lat": 29.8833, "long": 80.5333 }, "geometry": { "type": "Point", "coordinates": [ 80.5333, 29.8833 ] } },
{ "type": "Feature", "properties": { "Name": "KOIRALA PRATIGYA ", "District": "Kavre ", "lat": 27.6167, "long": 85.55 }, "geometry": { "type": "Point", "coordinates": [ 85.55, 27.6167 ] } },
{ "type": "Feature", "properties": { "Name": "LAMICHHANE NANDAWEE ", "District": "Kathmandu", "lat": 27.7, "long": 85.3333 }, "geometry": { "type": "Point", "coordinates": [ 85.3333, 27.7 ] } },
{ "type": "Feature", "properties": { "Name": "LUINTEL SAKSHAM", "District": "jhapa", "lat": 27.0, "long": 85.0 }, "geometry": { "type": "Point", "coordinates": [ 85.0, 27.0 ] } },
{ "type": "Feature", "properties": { "Name": "MEHTA SONIYA ", "District": "Bara", "lat": 28.9983, "long": 83.9983 }, "geometry": { "type": "Point", "coordinates": [ 83.9983, 28.9983 ] } },
{ "type": "Feature", "properties": { "Name": "NEUPANE SONIK ", "District": "Kavrepalanchok", "lat": 28.2167, "long": 83.9667 }, "geometry": { "type": "Point", "coordinates": [ 83.9667, 28.2167 ] } },
{ "type": "Feature", "properties": { "Name": "OLI SUDHAN  ", "District": "mustang", "lat": 26.8333, "long": 85.9167 }, "geometry": { "type": "Point", "coordinates": [ 85.9167, 26.8333 ] } },
{ "type": "Feature", "properties": { "Name": "PALIKHE SHUBHECHYA  ", "District": "Kaski", "lat": 28.7, "long": 80.6 }, "geometry": { "type": "Point", "coordinates": [ 80.6, 28.7 ] } },
{ "type": "Feature", "properties": { "Name": "PANDIT RAJAN ", "District": "Dhanusha", "lat": 27.6667, "long": 84.4333 }, "geometry": { "type": "Point", "coordinates": [ 84.4333, 27.6667 ] } },
{ "type": "Feature", "properties": { "Name": "PANT AARYA ", "District": "Kailali", "lat": 27.3833, "long": 82.8333 }, "geometry": { "type": "Point", "coordinates": [ 82.8333, 27.3833 ] } },
{ "type": "Feature", "properties": { "Name": "PANT LOCHAN ", "District": "Chitawan", "lat": 27.0, "long": 84.9833 }, "geometry": { "type": "Point", "coordinates": [ 84.9833, 27.0 ] } },
{ "type": "Feature", "properties": { "Name": "PAUDEL ENOUGH ", "District": "pyuthan", "lat": 26.6667, "long": 87.2667 }, "geometry": { "type": "Point", "coordinates": [ 87.2667, 26.6667 ] } },
{ "type": "Feature", "properties": { "Name": "PAUDEL PUSKAR ", "District": "parsa", "lat": 26.8833, "long": 85.4333 }, "geometry": { "type": "Point", "coordinates": [ 85.4333, 26.8833 ] } },
{ "type": "Feature", "properties": { "Name": "PAUDEL RAJAN ", "District": "kathmandu", "lat": 27.1667, "long": 87.3333 }, "geometry": { "type": "Point", "coordinates": [ 87.3333, 27.1667 ] } },
{ "type": "Feature", "properties": { "Name": "POUDEL PRATISTHA LAXMI", "District": "jhapa", "lat": 26.9333, "long": 85.5333 }, "geometry": { "type": "Point", "coordinates": [ 85.5333, 26.9333 ] } },
{ "type": "Feature", "properties": { "Name": "PURI SHEKHRAJ ", "District": "Morang", "lat": 26.9, "long": 87.9167 }, "geometry": { "type": "Point", "coordinates": [ 87.9167, 26.9 ] } },
{ "type": "Feature", "properties": { "Name": "RANJAN PRABHAT ", "District": "Rauthat", "lat": 29.2833, "long": 80.5333 }, "geometry": { "type": "Point", "coordinates": [ 80.5333, 29.2833 ] } },
{ "type": "Feature", "properties": { "Name": "RAUT SHRIJAN  ", "District": "Terhathum", "lat": 27.6667, "long": 85.4167 }, "geometry": { "type": "Point", "coordinates": [ 85.4167, 27.6667 ] } },
{ "type": "Feature", "properties": { "Name": "RAY NABIN ", "District": "Sarlahi", "lat": 27.3333, "long": 87.6667 }, "geometry": { "type": "Point", "coordinates": [ 87.6667, 27.3333 ] } },
{ "type": "Feature", "properties": { "Name": "RIJAL ASHISH  ", "District": "Kathmandu", "lat": 26.8333, "long": 85.7833 }, "geometry": { "type": "Point", "coordinates": [ 85.7833, 26.8333 ] } },
{ "type": "Feature", "properties": { "Name": "SAH AYUSHA KUMARI", "District": "ilam", "lat": 27.4333, "long": 85.0833 }, "geometry": { "type": "Point", "coordinates": [ 85.0833, 27.4333 ] } },
{ "type": "Feature", "properties": { "Name": "SAUD GANESH ", "District": "Dadeldhura", "lat": 27.5167, "long": 83.4667 }, "geometry": { "type": "Point", "coordinates": [ 83.4667, 27.5167 ] } },
{ "type": "Feature", "properties": { "Name": "SHRESTHA AASISH ", "District": "chitwan", "lat": 29.2833, "long": 82.1833 }, "geometry": { "type": "Point", "coordinates": [ 82.1833, 29.2833 ] } },
{ "type": "Feature", "properties": { "Name": "SHRESTHA SUSHAM ", "District": "Bhaktapur", "lat": 27.6667, "long": 85.3167 }, "geometry": { "type": "Point", "coordinates": [ 85.3167, 27.6667 ] } },
{ "type": "Feature", "properties": { "Name": "SHRESTHA SWORNIM ", "District": "Sarlahi", "lat": 26.9833, "long": 87.3333 }, "geometry": { "type": "Point", "coordinates": [ 87.3333, 26.9833 ] } },
{ "type": "Feature", "properties": { "Name": "SILWAL SUPRIYA ", "District": "Taplejung", "lat": 28.1, "long": 81.6667 }, "geometry": { "type": "Point", "coordinates": [ 81.6667, 28.1 ] } },
{ "type": "Feature", "properties": { "Name": "SINGH BHUMIKA KUMARI", "District": "Mahottari ", "lat": 28.2167, "long": 84.3333 }, "geometry": { "type": "Point", "coordinates": [ 84.3333, 28.2167 ] } },
{ "type": "Feature", "properties": { "Name": "TIMALSINA AAYUSHMA  ", "District": "Makwanpur", "lat": 29.2167, "long": 80.8333 }, "geometry": { "type": "Point", "coordinates": [ 80.8333, 29.2167 ] } },
{ "type": "Feature", "properties": { "Name": "TOLANGE ALIJA ", "District": " Kavrepalanchowk", "lat": 27.6167, "long": 85.55 }, "geometry": { "type": "Point", "coordinates": [ 85.55, 27.6167 ] } },
{ "type": "Feature", "properties": { "Name": "UPADHAYA SAGAR ", "District": "Jumla", "lat": 29.2833, "long": 82.1833 }, "geometry": { "type": "Point", "coordinates": [ 82.1833, 29.2833 ] } },
{ "type": "Feature", "properties": { "Name": "YADAV AMIT  KUMAR", "District": "DHANUSHA", "lat": 26.8333, "long": 85.9167 }, "geometry": { "type": "Point", "coordinates": [ 85.9167, 26.8333 ] } },
{ "type": "Feature", "properties": { "Name": "YADAV ANISHA  ", "District": "lalitpur ", "lat": 27.6667, "long": 85.3167 }, "geometry": { "type": "Point", "coordinates": [ 85.3167, 27.6667 ] } },
{ "type": "Feature", "properties": { "Name": "YADAV NITESH ", "District": "Dhankuta", "lat": 26.9833, "long": 87.3333 }, "geometry": { "type": "Point", "coordinates": [ 87.3333, 26.9833 ] } },
{ "type": "Feature", "properties": { "Name": "YADAV SANJIT ", "District": "Morang", "lat": 26.9, "long": 87.9167 }, "geometry": { "type": "Point", "coordinates": [ 87.9167, 26.9 ] } },
{ "type": "Feature", "properties": { "Name": "SHARMA AAKRITI ", "District": "Banke", "lat": 28.3167, "long": 81.5 }, "geometry": { "type": "Point", "coordinates": [ 81.5, 28.3167 ] } },
{ "type": "Feature", "properties": { "Name": "SHARMA SAHADEV ", "District": " Bardiya", "lat": 28.3167, "long": 81.5 }, "geometry": { "type": "Point", "coordinates": [ 81.5, 28.3167 ] } },
{ "type": "Feature", "properties": { "Name": "ROKAYA RAJESH", "District": "Doti ", "lat": 29.2167, "long": 80.8333 }, "geometry": { "type": "Point", "coordinates": [ 80.8333, 29.2167 ] } }
]
}
